이름,도로명주소,위도,경도
당현지구대,서울 노원구 노원로17길 64,37.64201519,127.0683536
노원역지구대,서울 노원구 노원로 431,37.65500523,127.0669163
화랑지구대,서울 노원구 동일로 1034,37.62256592,127.0745976
불암지구대,서울 노원구 한글비석로 277,37.65243504,127.0773404
월계지구대,서울 노원구 월계로55길 58,37.63368623,127.0592911
마들지구대,서울 노원구 한글비석로 489,37.66458702,127.0636189
당고개파출소,서울 노원구 상계로35길 29,37.67147105,127.0778527
상계1파출소,서울 노원구 동일로 1693,37.67968126,127.0550472
